{"type":"FeatureCollection","features":[{"type":"Feature","geometry":{"type":"Point","coordinates":[68.8709,36.7333]},"properties":{"iso3":"AFG","pcode":"AFGp000405","gis_name":"Kunduz","name_alt":null,"name_fr":"Kunduz","name_sp":null,"loc_type":"Field Office","address_1":null,"address_2":null,"address_3":null,"address_4":null,"city":null,"ds_code":"AFGKU","msrp_sp_id":null}},{"type":"Feature","geometry":{"type":"Point","coordinates":[69.1743,34.5316]},"properties":{"iso3":"AFG","pcode":"AFGp000004","gis_name":"Kabul","name_alt":"Kabul","name_fr":"Kaboul","name_sp":null,"loc_type":"Field Unit","address_1":"41 Jadi Solh (Peace Avenue)","address_2":null,"address_3":null,"address_4":null,"city":"Kabul","ds_code":"AFGKS","msrp_sp_id":"AFGKS"}},{"type":"Feature","geometry":{"type":"Point","coordinates":[67.8314,34.8151]},"properties":{"iso3":"AFG","pcode":"AFGp000001","gis_name":"Bamyan","name_alt":null,"name_fr":"Bamyan","name_sp":null,"loc_type":"Field Unit","address_1":"North Stern Air Strip Sarasyab","address_2":"Shahr-e-Ghul Ghula Bamyan","address_3":null,"address_4":null,"city":"Bamyan","ds_code":"AFGBA","msrp_sp_id":null}},{"type":"Feature","geometry":{"type":"Point","coordinates":[62.2247,34.3453]},"properties":{"iso3":"AFG","pcode":"AFGp000002","gis_name":"Herat","name_alt":null,"name_fr":"Herat","name_sp":null,"loc_type":"Field Office","address_1":"Mahbas Street, Mohammada Residence","address_2":null,"address_3":null,"address_4":null,"city":"Herat","ds_code":"AFGHE","msrp_sp_id":"AFGHE"}},{"type":"Feature","geometry":{"type":"Point","coordinates":[67.1045,36.7186]},"properties":{"iso3":"AFG","pcode":"AFGp000006","gis_name":"Mazar-i-Sharif","name_alt":null,"name_fr":"Mazar-i-Sharif","name_sp":null,"loc_type":"Sub-Office","address_1":"Dash-e-Shor","address_2":null,"address_3":null,"address_4":null,"city":"Mazar-i-Sharif","ds_code":"AFGMA","msrp_sp_id":"AFGMA"}},{"type":"Feature","geometry":{"type":"Point","coordinates":[69.2156,33.5996]},"properties":{"iso3":"AFG","pcode":"AFGp000440","gis_name":"Gardez","name_alt":null,"name_fr":"Gardez","name_sp":null,"loc_type":"Field Office","address_1":"Ghazni Station Road","address_2":null,"address_3":null,"address_4":null,"city":"Gardez","ds_code":"AFGGA","msrp_sp_id":"AFGGA"}},{"type":"Feature","geometry":{"type":"Point","coordinates":[70.4383,34.4353]},"properties":{"iso3":"AFG","pcode":"AFGp000003","gis_name":"Jalalabad","name_alt":null,"name_fr":"Jalalabad","name_sp":null,"loc_type":"Sub-Office","address_1":"Near Public Health Hospital","address_2":null,"address_3":null,"address_4":null,"city":"Jalalabad","ds_code":"AFGJA","msrp_sp_id":"AFGJA"}},{"type":"Feature","geometry":{"type":"Point","coordinates":[69.1743,34.5316]},"properties":{"iso3":"AFG","pcode":"AFGp000432","gis_name":"Kabul CO","name_alt":null,"name_fr":"Kaboul","name_sp":null,"loc_type":"Country Office","address_1":"41, Jadi Solh (Peace Avenue)","address_2":"Shar-e-Naw","address_3":null,"address_4":null,"city":"Kabul","ds_code":"AFGKA","msrp_sp_id":"AFGKA"}},{"type":"Feature","geometry":{"type":"Point","coordinates":[65.6863,31.6116]},"properties":{"iso3":"AFG","pcode":"AFGp000005","gis_name":"Kandahar","name_alt":null,"name_fr":"Kandahar","name_sp":null,"loc_type":"Field Office","address_1":"Shar-e-Now","address_2":null,"address_3":null,"address_4":null,"city":"Kandahar","ds_code":"AFGKD","msrp_sp_id":"AFGKD"}}]}